{
  "type": "FeatureCollection",
  "features": [
    { "type": "Feature", "geometry": { "type": "Point", "coordinates": [-122.4194, 37.7749] }, "properties": { "name": "San Francisco Bay area", "reason": "Transmission + fiber corridors + renewable capacity" } },
    { "type": "Feature", "geometry": { "type": "Point", "coordinates": [-118.2437, 34.0522] }, "properties": { "name": "Los Angeles area", "reason": "Transmission + fiber corridors + renewable capacity" } },
    { "type": "Feature", "geometry": { "type": "Point", "coordinates": [-117.1611, 32.7157] }, "properties": { "name": "San Diego area", "reason": "Transmission + fiber corridors + renewable capacity" } },
    { "type": "Feature", "geometry": { "type": "Point", "coordinates": [-121.8863, 37.3382] }, "properties": { "name": "San Jose / Silicon Valley", "reason": "Transmission + fiber corridors + renewable capacity" } },
    { "type": "Feature", "geometry": { "type": "Point", "coordinates": [-111.0937, 45.6762] }, "properties": { "name": "Boise area", "reason": "Transmission + fiber corridors + renewable capacity" } },
    { "type": "Feature", "geometry": { "type": "Point", "coordinates": [-112.0740, 33.4484] }, "properties": { "name": "Phoenix area", "reason": "Transmission + fiber corridors + renewable capacity" } },
    { "type": "Feature", "geometry": { "type": "Point", "coordinates": [-105.3111, 40.0150] }, "properties": { "name": "Denver / Front Range", "reason": "Transmission + fiber corridors + renewable capacity" } },
    { "type": "Feature", "geometry": { "type": "Point", "coordinates": [-106.6504, 35.0844] }, "properties": { "name": "Albuquerque area", "reason": "Transmission + fiber corridors + renewable capacity" } },
    { "type": "Feature", "geometry": { "type": "Point", "coordinates": [-111.6513, 40.2338] }, "properties": { "name": "Salt Lake City area", "reason": "Transmission + fiber corridors + renewable capacity" } },
    { "type": "Feature", "geometry": { "type": "Point", "coordinates": [-106.4425, 31.7619] }, "properties": { "name": "El Paso area", "reason": "Transmission + fiber corridors + renewable capacity" } },
    { "type": "Feature", "geometry": { "type": "Point", "coordinates": [-99.9018, 31.9686] }, "properties": { "name": "Central Texas", "reason": "Transmission + fiber corridors + renewable capacity" } },
    { "type": "Feature", "geometry": { "type": "Point", "coordinates": [-96.7970, 32.7767] }, "properties": { "name": "Dallas–Fort Worth", "reason": "Transmission + fiber corridors + renewable capacity" } },
    { "type": "Feature", "geometry": { "type": "Point", "coordinates": [-97.7431, 30.2672] }, "properties": { "name": "Austin area", "reason": "Transmission + fiber corridors + renewable capacity" } },
    { "type": "Feature", "geometry": { "type": "Point", "coordinates": [-95.3698, 29.7604] }, "properties": { "name": "Houston area", "reason": "Transmission + fiber corridors + renewable capacity" } },
    { "type": "Feature", "geometry": { "type": "Point", "coordinates": [-98.4936, 29.4241] }, "properties": { "name": "San Antonio area", "reason": "Transmission + fiber corridors + renewable capacity" } },
    { "type": "Feature", "geometry": { "type": "Point", "coordinates": [-101.8556, 35.2220] }, "properties": { "name": "Amarillo / Panhandle", "reason": "Transmission + fiber corridors + renewable capacity" } },
    { "type": "Feature", "geometry": { "type": "Point", "coordinates": [-93.1150, 45.0153] }, "properties": { "name": "Minneapolis–St. Paul", "reason": "Transmission + fiber corridors + renewable capacity" } },
    { "type": "Feature", "geometry": { "type": "Point", "coordinates": [-87.6298, 41.8781] }, "properties": { "name": "Chicago area", "reason": "Transmission + fiber corridors + renewable capacity" } },
    { "type": "Feature", "geometry": { "type": "Point", "coordinates": [-83.0458, 42.3314] }, "properties": { "name": "Detroit area", "reason": "Transmission + fiber corridors + renewable capacity" } },
    { "type": "Feature", "geometry": { "type": "Point", "coordinates": [-86.1581, 39.7684] }, "properties": { "name": "Indianapolis area", "reason": "Transmission + fiber corridors + renewable capacity" } },
    { "type": "Feature", "geometry": { "type": "Point", "coordinates": [-84.5120, 39.1031] }, "properties": { "name": "Cincinnati area", "reason": "Transmission + fiber corridors + renewable capacity" } },
    { "type": "Feature", "geometry": { "type": "Point", "coordinates": [-82.9988, 39.9612] }, "properties": { "name": "Columbus area", "reason": "Transmission + fiber corridors + renewable capacity" } },
    { "type": "Feature", "geometry": { "type": "Point", "coordinates": [-90.1994, 38.6270] }, "properties": { "name": "St. Louis area", "reason": "Transmission + fiber corridors + renewable capacity" } },
    { "type": "Feature", "geometry": { "type": "Point", "coordinates": [-94.5786, 39.0997] }, "properties": { "name": "Kansas City area", "reason": "Transmission + fiber corridors + renewable capacity" } },
    { "type": "Feature", "geometry": { "type": "Point", "coordinates": [-96.7970, 43.5446] }, "properties": { "name": "Sioux Falls area", "reason": "Transmission + fiber corridors + renewable capacity" } },
    { "type": "Feature", "geometry": { "type": "Point", "coordinates": [-97.0000, 32.7500] }, "properties": { "name": "North Texas", "reason": "Transmission + fiber corridors + renewable capacity" } },
    { "type": "Feature", "geometry": { "type": "Point", "coordinates": [-84.3880, 33.7490] }, "properties": { "name": "Atlanta area", "reason": "Transmission + fiber corridors + renewable capacity" } },
    { "type": "Feature", "geometry": { "type": "Point", "coordinates": [-80.8431, 35.2271] }, "properties": { "name": "Charlotte area", "reason": "Transmission + fiber corridors + renewable capacity" } },
    { "type": "Feature", "geometry": { "type": "Point", "coordinates": [-86.9023, 33.5207] }, "properties": { "name": "Birmingham area", "reason": "Transmission + fiber corridors + renewable capacity" } },
    { "type": "Feature", "geometry": { "type": "Point", "coordinates": [-90.0789, 29.9511] }, "properties": { "name": "New Orleans area", "reason": "Transmission + fiber corridors + renewable capacity" } },
    { "type": "Feature", "geometry": { "type": "Point", "coordinates": [-81.3792, 28.5383] }, "properties": { "name": "Orlando area", "reason": "Transmission + fiber corridors + renewable capacity" } },
    { "type": "Feature", "geometry": { "type": "Point", "coordinates": [-80.1918, 25.7617] }, "properties": { "name": "Miami area", "reason": "Transmission + fiber corridors + renewable capacity" } },
    { "type": "Feature", "geometry": { "type": "Point", "coordinates": [-78.6382, 35.7796] }, "properties": { "name": "Raleigh–Durham", "reason": "Transmission + fiber corridors + renewable capacity" } },
    { "type": "Feature", "geometry": { "type": "Point", "coordinates": [-75.1652, 39.9526] }, "properties": { "name": "Philadelphia area", "reason": "Transmission + fiber corridors + renewable capacity" } },
    { "type": "Feature", "geometry": { "type": "Point", "coordinates": [-74.0060, 40.7128] }, "properties": { "name": "New York / New Jersey", "reason": "Transmission + fiber corridors + renewable capacity" } },
    { "type": "Feature", "geometry": { "type": "Point", "coordinates": [-71.0589, 42.3601] }, "properties": { "name": "Boston area", "reason": "Transmission + fiber corridors + renewable capacity" } },
    { "type": "Feature", "geometry": { "type": "Point", "coordinates": [-76.6122, 39.2904] }, "properties": { "name": "Baltimore–DC area", "reason": "Transmission + fiber corridors + renewable capacity" } },
    { "type": "Feature", "geometry": { "type": "Point", "coordinates": [-79.9959, 40.4406] }, "properties": { "name": "Pittsburgh area", "reason": "Transmission + fiber corridors + renewable capacity" } },
    { "type": "Feature", "geometry": { "type": "Point", "coordinates": [-81.6814, 41.4993] }, "properties": { "name": "Cleveland area", "reason": "Transmission + fiber corridors + renewable capacity" } },
    { "type": "Feature", "geometry": { "type": "Point", "coordinates": [-122.3321, 47.6062] }, "properties": { "name": "Seattle area", "reason": "Transmission + fiber corridors + renewable capacity" } },
    { "type": "Feature", "geometry": { "type": "Point", "coordinates": [-122.6765, 45.5231] }, "properties": { "name": "Portland area", "reason": "Transmission + fiber corridors + renewable capacity" } }
  ]
}
